address,description,lat,lng
Afognak; Alaska ,Afognak (/əˈfɒɡnæk/; also Ag'waneq[1]  in Alutiiq) was an Alutiiq village on the island of Afognak in Kodiak Island Borough; Alaska; United States. It was located on Afognak Bay on the southwest coast of the island; three miles north of Kodiak Island.[2],58.00777778,-152.7680556
Cape York; Alaska ,,65.415,-167.4636111
Chena; Alaska ,Chena was a small town in interior Alaska near the confluence of the Chena and Tanana rivers whose heyday was in the first two decades of the 20th century; with a peak population of about 400 in 1907. By 1910 the population had fallen to 138.[1],64.79555556,-147.9516667
Chisana; Alaska ,'Chisana (also Shushanna) (Tsetsaan' Na in Ahtna) is a ghost town abandoned and a  census-designated place (CDP) in the Valdez-Cordova Census Area in the U.S. state of Alaska. As of the 2010 Census;[3] the population of the CDP was 0. The English name Chisana derives from the Ahtna Athabascan name Tsetsaan' Na'; meaning literally 'copper river' (not to be confused with the river known in English as the Copper River). The Chisana River joins the Nabesna River just north of Northway Junction; Alaska; to form the Tanana River; a major tributary of the Yukon River.[4] The Chisana Airport consists of a turf and gravel runway which is largely serviced by flights from Tok; Alaska.,62.06611111,-142.0408333
Council; Alaska ,Council (Inupiaq: Kaułiq or Akauchak) is an abandoned townsite in the Nome Census Area in the U.S. state of Alaska. It has a population of zero as of the 2000 and 2010 U.S. Censuses.,64.895,-163.6763889
Curry; Alaska ,Curry is a ghost town in Matanuska-Susitna Borough; Alaska; United States.  It was also known as Dead Horse (not to be confused with the community near the Arctic Ocean). Its post office was founded with that name as well.[1],62.61472222,-150.0119444
Dickson; Alaska ,Dickson was a settlement in the U.S. state of Alaska. Situated in the Nome Census Area on the Seward Peninsula; it was located directly opposite Solomon; on the east bank of the Solomon River.  It was the coastal terminus of the Council City and Solomon River Railroad. All of its industries and inhabitants were connected with the railroad. Established in 1903; it was named for T. Warren Dickson; general manager of the Western Alaska Construction Company; which built the railroad.[1] By 1910; its population was approximately 50 residents.[2],64.55555556,-164.41472219999997
Dyea; Alaska ,Dyea (/daɪˈiː/ dye-EE) is a former town in the U.S. state of Alaska.  A few people live on individual small homesteads in the valley; however; it is largely abandoned.  It is located at the convergence of the Taiya River and Taiya Inlet on the south side of the Chilkoot Pass within the limits of the Municipality of Skagway Borough; Alaska.  During the Klondike Gold Rush prospectors disembarked at its port and used the Chilkoot Trail; a Tlingit trade route over the Coast Mountains; to begin their journey to the gold fields around Dawson City; Yukon; about 800 km (500 mi) away. Confidence man and crime boss Soapy Smith; famous for his underworld control of the neighboring town of Skagway in 1897–98 is believed to have had control of Dyea as well.[1],59.50444444,-135.36
Flat; Alaska ,Flat is a census-designated place (CDP) in Yukon-Koyukuk Census Area; Alaska; United States.  As of the 2010 Census; the population of the CDP was 0; down from 4 residents in 2000. Its post office closed in January 2004.[1],62.45416667,-158.0083333
Gilmore; Alaska ,,55.342339,-131.6478289
Iditarod; Alaska ,Iditarod is an abandoned town in the Yukon-Koyukuk Census Area in the U.S. state of Alaska. It is presently located within the boundaries of the Flat Census Designated Place; which has no residents as of 2010.,62.54444444,-158.09527780000002
Independence Mines ,"The Independence Mines; now Independence Mine State Historic Park; is the site of a former gold mining operation in the Talkeetna Mountains; across Hatcher Pass from Palmer; Alaska.  The area's mining history dates to at least 1897; when active claims were reported in the vicinity of Fishook Creek.  These early mining efforts were eventually joined to form the Wasilla Mining Company; which worked the mines from 1934 to 1943; and again from 1948 to 1950.  The mining operation at Independence was the second-largest hard-rock gold mining operation in the state; after a larger site near Juneau.  The company and the miners that preceded it built a substantial mining camp; with as many as sixteen wood frame buildings; which were originally connected to each other by sheltered wooden ""tunnels"".  When the company ended operations in 1950; it had expected to eventually resume operations; but never did; this resulted in a particularly well-preserved collection of mining equipment and buildings; although the weather has since taken a significant toll on the latter.[2]",61.79027778,-149.28472219999998
Kalakaket; Alaska ,,64.4134369,-156.8984858
Katalla; Alaska ,Katalla (pronounced KA-tell-ah) is a ghost town in the Valdez-Cordova Census Area in the U.S. state of Alaska; 76 km (47 mi) southeast of Cordova.  The name of this town was sometimes spelled Catalla. It is now abandoned.,60.195,-144.5211111
Kennecott; Alaska ,Kennecott; also known as Kennicott and Kennecott Mines; is an abandoned mining camp in the Valdez-Cordova Census Area in the U.S. state of Alaska that was the center of activity for several copper mines.[3] It is located beside the Kennicott Glacier; northeast of Valdez; inside Wrangell-St. Elias National Park and Preserve. The camp and mines are now a National Historic Landmark District administered by the National Park Service.,61.51916667,-142.8413889
Kern; Alaska ,Kern is a former settlement on the Turnagain Arm in Alaska and a flagstop for the Alaska Railroad; about 71 miles (114 km) north of Seward;[1][2][3] and 13 miles (21 km) east of Sunrise; Alaska.[4] Kern was located near Kern Creek.[1] In 1914 it was the end of the track of the Alaksa Northern Railroad; after which it was purchased by the United States government.[1][5],60.90694444,-149.0780556
Kijik; Alaska ,Kijik is a ghost town in Lake and Peninsula Borough; Alaska; United States.  An Athabascan village that was established on the shores of Lake Clark in the Alaska Range; its population was recorded at 91 in the 1880 United States Census and declined thereafter; falling to approximately 25 individuals by 1904.  Today; the village has been abandoned.  The ghost town is located within the bounds of Lake Clark National Park and Preserve.,60.300135600000004,-154.3225751
King Island (Alaska) ,King Island (Inupiaq: Ugiuvak) (King's Island in early US sources) is an island in the Bering Sea; west of Alaska. It is about 40 miles (64 km) west of Cape Douglas and is south of Wales; Alaska.,64.975,-168.05972219999998
Knik Site ,The Knik Site; also known as the Old Knik Townsite; is the location in Matanuska-Susitna Borough; Alaska that was once home to the largest settlement on Cook Inlet.  The only surviving remnants of the community are a former log roadhouse; now a museum operated by the Wasilla-Knik Historical Society; and a log cabin.  The Knik area had long been a meeting point of Native Alaskans; and in 1898 it became the principal community on Cook Inlet from which goods were shipped into the interior.  In 1916 the Alaska Railroad reached the site of present-day Anchorage; bypassing Knik and leading to Anchorage's growth.  When the railroad reached Wasilla; Knik lost all importance as a transshipment point; and its buildings were either abandoned or moved to one of the other communities.  Knik is located about 13 miles (21 km) southwest of Wasilla.[2],61.4575,-149.7311111
Loring; Alaska ,Loring was established in 1885 with the first post office in the District of Alaska and is a census-designated place (CDP) in Ketchikan Gateway Borough in the U.S. state of Alaska. The population was 4 at the 2010 census;[2] although the number increases in summer months.,55.60305556,-131.6369444
Mary's Igloo; Alaska ,Mary's Igloo (Qawiaraq in Iñupiaq) is an abandoned village located in the Nome Census Area of the Unorganized Borough in the U.S. state of Alaska; now used as a fish camp.  Many former residents and their descendants currently live in nearby Teller or the next largest community; Nome.,65.15,-165.06666669999998
Meehan; Alaska ,,64.2008413,-149.4936733
Ohagamiut; Alaska ,Ohagamiut (Urr’agmiut in Central Alaskan Yup'ik) is an abandoned village along the Kuskokwim River in the Bethel Census Area of the southwestern part of the U.S. state of Alaska; located between Crow Village and Kalskag. It was abandoned in the 1940s as residents relocated to Kalskag; Aniak; Bethel and other towns. The village site is located just 3 miles east of Upper Kalskag.,61.53722222,-160.1977778
Olnes; Alaska ,,65.0741667,-147.66999980000003
Ophir; Alaska ,Ophir[pronunciation?] is an unincorporated area located in the Yukon-Koyukuk Census Area in the U.S. state of Alaska.,63.14472222,-156.51944440000003
Pedro; Alaska ,,59.78722220000001,-154.106111
Port Wakefield; Alaska ,Port Wakefield is a ghost town in the U.S. state of Alaska. It is located on the northeast coast of Raspberry Island in the Kodiak Archipelago; along the western shores of the Gulf of Alaska.,58.04916667,-153.0525
Portage; Anchorage ,"Portage is a ghost town and former settlement on Turnagain Arm in Alaska; about 47 miles (76 km) south of Anchorage.[1] This town was destroyed almost entirely in the 1964 Alaska earthquake when the ground in the area sank about six feet (1.8 m); putting most of the town below high tide level. All that remains today are the ruins of a few buildings and a ""ghost forest"" of trees that died after salt water inundated their root systems. Where there was once a town there is now only a railroad and road junction linking the Seward Highway and the Alaska Railroad to Portage Glacier park and the Anton Anderson Memorial Tunnel; which  leads to Whittier.[2]",60.83694444,-148.985
Prospect Creek; Alaska ,Prospect Creek is a very small settlement approximately 180 miles (290 km) north of present-day Fairbanks and 25 miles (40 km) southeast of present-day Bettles; Alaska. Years ago it was home to numerous mining expeditions and the camp for the building of the Trans-Alaska Pipeline System (TAPS). Today; it is the location of Pump Station 5 (Jim River Station) of the TAPS. Prospect Creek is also home to the United States record for lowest temperature. On January 23; 1971 the record low temperature of −79.8 °F (−62.1 °C) (rounded to −80 °F (−62 °C)) was recorded. Wildlife can be found there even with its extreme changes in temperature; local fauna include anything from black and brown bears to bald eagles. The elevation of Prospect Creek is 643 feet (196 m) above sea level. Nearby Moore Creek is widely known for its gold and quartz mining and sits alongside Prospect Creek in Alaska’s Innoko Mining District (Moorecreek Mining Line; MML). The Innoko Mining District is famous for its findings of large quartz.,66.81333333,-150.6438889
Seaside; Alaska ,,59.67636360000001,-151.4123325
Snettisham; Juneau ,"Snettisham is a locale and former populated place in the City and Borough of Juneau; Alaska; United States.  Based on the mainland coast of Stephens Passage; it is 31 miles (50 km) southeast of the city of Juneau.  The area was named by George Vancouver in 1794;[1] the bay on which Snettisham was located (Port Snettisham) was named for the town of Snettisham in England.[2]  It was established as a gold- and silver-mining camp around 1895; its operations being linked to those in the immediate Juneau area; and it remained a small harbor village until 1926.[3][4]  The United States Department of the Treasury designated Snettisham as one of several of Alaska's ""special"" landing places for vessels carrying ""coal; salt; railroad iron; and other like items in bulk"".  The designation was meant to encourage the construction of facilities to accommodate these shipments; thus stimulating creation and growth of local businesses.[5]",57.98416667,-133.78805559999998
Speel River; Alaska ,,58.213158299999996,-133.6339423
Sulzer; Alaska ,Sulzer; Alaska is a ghost town on Prince of Wales Island in the U.S. state of Alaska. The community centered on a copper mine established by William Sulzer on the shore of Hetta Inlet.[1] Operated by the Alaska Consolidated Mining and Smelting Company;[2] the Jumbo Mine was active from 1907 to 1918 and was one of Alaska's largest copper producers.[3],55.28888889,-132.6208333
Three Saints Bay ,Coordinates: 57°8′8″N 153°29′45″W﻿ / ﻿57.13556°N 153.49583°W﻿ / 57.13556; -153.49583,57.13555556,-153.49583330000002
Tin City; Alaska ,Tin City is an abandoned town except for a nearby minimally manned radar station;   located at 65°33′31″N 167°56′53″W﻿ / ﻿65.55861°N 167.94806°W﻿ / 65.55861; -167.94806Coordinates: 65°33′31″N 167°56′53″W﻿ / ﻿65.55861°N 167.94806°W﻿ / 65.55861; -167.94806 in the Nome Census Area of the U.S. state of Alaska. It is situated at the mouth of Cape Creek; on the Bering Sea coast; 5 miles (8 km) southeast of Cape Prince of Wales on the Seward Peninsula.[1],65.55861111,-167.94805559999998
Unga; Alaska ,Coordinates: 55°11′03″N 160°30′18″W﻿ / ﻿55.18417°N 160.50500°W﻿ / 55.18417; -160.50500Unga is a ghost town on Unga Island in the Aleutians East Borough of the U.S. state of Alaska;[1] about two miles west of Sand Point.  The island's length is 15 miles (24 km).[2]  Unga's altitude is 59 feet (18 m).[1],55.18416667,-160.505
York; Alaska ,York was a settlement in the U.S. state of Alaska. The mining camp was situated at the mouth of Anikovik River; at Cape York on the Seward Peninsula. It was a distributing point for the region lying to the north. In the spring of 1900; York promised to be a place of importance; but in the early fall; its population had been reduced to about 20-30. The settlement included a number of log cabins and half a dozen substantial frame buildings. During the stormy months of the fall; landing at York was difficult. It was reached overland with horses from Port Clarence. Fifteen miles to the west of York; at Cape Prince of Wales; is the city of Kengegan (Wales); which is the westernmost settlement on the North American continent.[1] York is about 80 miles (130 km) from Nome and 45 miles (72 km) from Port Clarence. The lack of shelter from southerly storms made the landing at York during the fall months often both difficult and dangerous.[2] The post office established here in April 1900 was discontinued in 1902.[3],65.49388889,-167.6838889
American Flag; Arizona ,American Flag is a ghost town in Pinal County; Arizona; five miles southeast of Oracle. The town was established in the late 1870s but shortly after 1890; the town had become abandoned.,32.58,-110.72027779999999
Castle Dome Landing; Arizona ,Castle Dome Landing; Arizona (also Castle Dome City) is a ghost town in the Castle Dome Mountains of Yuma County in the U.S. state of Arizona. It was first settled as a transport depot and mining camp around 1863 in what was then the Arizona Territory.[2][3][4],32.965,-114.46361110000001
Fairbank; Arizona ,Fairbank is a ghost town in Cochise County; Arizona; next to the San Pedro River. First settled in 1881; Fairbank was the closest rail stop to nearby Tombstone; which made it an important location in the development of southeastern Arizona. The town was named for Chicago investor Nathaniel Kellogg Fairbank who partially financed the railroad; and was the founder of the Grand Central Mining Company; which had an interest in the silver mines in Tombstone.  Today Fairbank is located within the San Pedro Riparian National Conservation Area (San Pedro RNCA).[1][2][3],31.72305556,-110.18833329999998
Gleeson; Arizona ,Gleeson is a populated place situated in southeastern Cochise County; Arizona.[3] It has an estimated elevation of 4;924 feet (1;501 m) above sea level.[1] The town was first settled as Turquoise[4] in the 1870s in what was then the Arizona Territory; then later re-established as Gleeson in 1900.[2],31.73388889,-109.8297222
Youngberg; Arizona ,Youngberg is a populated place situated in Pinal County; Arizona.[2] Originally called Goldfield due to the nearby gold mines; The Goldfield Post Office was established on October 7; 1893 with James L Patterson as its first Postmaster.[3] This was the same year that George U. Young arrived. After his arrival; the community also became known as Youngsberg. When the gold mines closed in 1897 the post office soon followed in 1898.[3][4] The town depopulated; before a new small community developed; and became known under its current name; which was in honor of Young; who was the Secretary for the Arizona Territory from 1909 to 1910. The Youngberg Post Office opened in 1920; and remained until 1926. It has an estimated elevation of 2;024 feet (617 m) above sea level.[1],33.45888889,-111.4872222
Jerome; Arizona ,,34.74888889,-112.11388889999999
Oatman; Arizona ,Oatman is a village in the Black Mountains of Mohave County; Arizona; United States. Located at an elevation of 2;710 feet (830 m); it began as a small mining camp soon after two prospectors struck a $10 million gold find in 1915; though the vicinity had already been settled for a number of years. Oatman's population grew to more than 3;500 in the course of a year.,35.02638889,-114.38361110000001
Paradise; Arizona ,Paradise is a ghost town in Cochise County in the U.S. state of Arizona. The town was settled in 1901 in what was then the Arizona Territory.,31.93472222,-109.2188889
Ruby; Arizona ,Ruby is a populated place in Santa Cruz County; Arizona; United States.  It was founded as a mining town in Bear Valley; originally named Montana Camp; so named because the miners were mining at the foot of Montana Peak.,31.46111111,-111.2375
Tombstone; Arizona ,,31.71583333,-110.0647222
Santa Claus; Arizona ,,35.33666667,-114.2163889
Vulture City; Arizona ,Vulture City is a ghost town situated at the site of the defunct Vulture Mine in Maricopa County; Arizona; United States.,33.87888889,-112.795
Bara-Hack; Connecticut ,Bara-Hack is a former village in the town of Pomfret; Connecticut.,41.88,-72.01111111
Dudleytown; Connecticut ,Dudleytown; was founded as a small settlement in Cornwall; Connecticut in the mid-1740s[1] and was abandoned in the 1800s.  Since the mid-1920s; the land occupied by the village has been maintained by philanthropists as a private land trust; who worked to reforest the land after decades of agricultural use.  Few traces; such as cellar holes; remain of the original village.  Due to rumors of ghost activity beginning in the 1980s; the village site has been subject to frequent vandalism; and the owners have since closed the land to the public.[2],41.80777778,-73.35222222
Gay City State Park ,Gay City State Park is a public recreation area on the Blackledge River in the towns of Hebron and Bolton; Connecticut.[3] The state park occupies 1;569 acres (635 ha) bordering Meshomasic State Forest and is accessible from State Route 85. In addition to its deep forest; millpond; and marshland; the park bears trace remnants (foundations; stone walls; and ditches) of the mill town that occupied the site for most of the 19th century. The park is managed by the Connecticut Department of Energy and Environmental Protection. ,41.72611111,-72.44
Pleasure Beach ,Pleasure Beach is the Bridgeport portion of a Connecticut barrier beach that extends 2-1/2 miles westerly from Point No Point (the portion in the adjoining town of Stratford is known as Long Beach). Prior to June; 2014; when Pleasure Beach re-opened; the area was Connecticut's largest and most recent ghost town[1] and abandoned in the late 1990s after a fire on the bridge connecting it to the mainland. It is surrounded on three sides by water (Lewis Gut to the north; Bridgeport Harbor to the west; and Long Island Sound to the south).,41.16111111,-73.16805556
Banning; Delaware ,Banning; Delaware; USA was a stop in Cedar Creek Hundred on the now defunct Queen Anne's Railroad line between Ellendale and Greenwood positioned at the NE corner of what now is Road 44/Blacksmith Shop Road[1] and Delaware Route 16/Beach Highway. After the railroad closed down and the tracks were removed; all Banning; Delaware property owned by the railroad was returned to Mark L. Banning; its previous landowner. A small town built around the Banning; Delaware stop disappeared.,38.80611111,-75.51638889
Glenville; Delaware ,Glenville is a ghost town in Delaware; United States; at 39°42′45″N 75°38′24″W﻿ / ﻿39.71250°N 75.64000°W﻿ / 39.71250; -75.64000. The community consisted of a development on Bread and Cheese Island; on the east bank of the Red Clay Creek near its mouth; just south of Delaware Route 4 near Stanton. Located in the floodplain for Red Clay Creek; the subdivision has always been prone to flooding; such as flooding from Hurricane Floyd in 1999 and Tropical Storm Henri in 2003. After floods caused by Tropical Storm Henri on September 15; 2003; homeowners were bought out by the state and local government; and the community was abandoned in 2004. Demolition began in 2005.[2],39.7125,-75.64
New Market; Delaware ,New Market was a small town in the U.S. state of Delaware located between Ellendale and Milton.  At the current crossroads of Holly Tree Road and Reynolds Pond Road just east of Ellendale was the New Market Church; around which the town was located.,38.80722222,-75.39694444
Owens Station; Delaware ,Owens Station; Delaware was a community in Delaware; U.S.A.[2],38.80555556,-75.52611111
Saint Johnstown; Delaware ,Saint Johnstown; Delaware; USA was a stop on the now defunct Queen Anne's Railroad line between Ellendale and Greenwood. After the railroad closed down and the tracks were removed; all property owned by the railroad was returned to its previous landowners and several small towns built around the stops disappeared.,38.805,-75.57555556
Zwaanendael Colony ,"Zwaanendael or Swaanendael /ˈzwɑːnəndɛl/ was a short-lived Dutch colonial settlement in Delaware. It was built in 1631. The name is archaic Dutch for ""swan valley."" The site of the settlement later became the town of Lewes; Delaware.",38.775,-75.13944444
Apua; Hawaii ,ʻĀpua was an ancient village in the Puna district on the southern coast of the Island of Hawaiʻi in the Hawaiian Islands. A small fishing village was located at about 19°15′41″N 155°11′46″W﻿ / ﻿19.26139°N 155.19611°W﻿ / 19.26139; -155.19611Coordinates: 19°15′41″N 155°11′46″W﻿ / ﻿19.26139°N 155.19611°W﻿ / 19.26139; -155.19611; an elevation about 59 feet (18 m) above sea level.[1]The village was destroyed by a tsunami following the April 2; 1868 Hawaii earthquake and never resettled.[2][3],19.26138889,-155.1961111
Kalapana; Hawaii ,Kalapana is a town and a region in the Puna District on the Island of Hawaiʻi in the Hawaiian Islands.[1] The town was the original location of the Star of the Sea Painted Church.,19.36666667,-154.95
Mana; Hawaii ,,22.0380556,-159.7722221
Mahukona Light , Māhukona is a former settlement on the island of Hawaiʻi. The extinct submerged volcano Māhukona; off shore and to the south; is named for this area. The settlement was once the terminus of the Hawaiian Railroad.,20.16666667,-155.9
Waialee; Hawaii ,,21.6882558,-158.0272106
Anita; Indiana ,Anita is an extinct town in Hensley Township; Johnson County; Indiana; United States.,39.42583333,-86.19138889
Baltimore; Indiana ,Baltimore was a small town built on the western banks of the Wabash River in Mound Township; Warren County; in the U.S. state of Indiana.,40.16583333,-87.44194444
Barbersville; Indiana ,Barbersville was an unincorporated town in Shelby Township; Jefferson County; Indiana. Nothing remains of its few buildings.,38.82583333,-85.33833333
Beeville; Indiana ,Coordinates: 40°13′18″N 86°47′24″W﻿ / ﻿40.221570°N 86.790090°W﻿ / 40.221570; -86.790090,40.22166667,-86.79
Berlin; Indiana ,"Berlin is an extinct town in Johnson Township; Clinton County; Indiana in the United States.  Platted in 1847 on Indian Prairie near the southeast corner of the township; the town faded during the 19th century and by the early 1900s was ""off the map"".[1]",41.6565508,-87.51950790000001
Brisco; Indiana ,Brisco (or Briscoe) was a small town in Pine Township; Warren County; in the U.S. state of Indiana.  It began in the 1850s and gained a one-room school in 1856; which operated until 1929.  In 1930 the school building became a general store run for more than 50 years by local resident Jim Marquess.  Never more than a tiny hamlet; Brisco almost entirely disappeared during the 20th century and now no longer appears on county maps; though the USGS cites it;[2] and a cemetery northeast of town still bears the name.,40.41111111,-87.35833333
Chatterton; Indiana ,"Chatterton was a small town in Adams Township; Warren County; in the U.S. state of Indiana.  It was founded in 1896 and included a school; a general store; and a post office that operated from 1900 to 1906.[2]  Though it has since dwindled away completely; the location of the town still persists on county maps; and is cited by the USGS.[3]  The mailbox for the single house remaining at the site has ""Chatterton"" stenciled on it.",40.40361111,-87.23972222
Chesapeake; Indiana ,Chesapeake was the first town in Steuben Township; Warren County; Indiana; which was formed in 1834.  It was located about two miles east of present-day town of Marshfield and was the site of the first meetings of the township trustees in the 1830s.  County Agent Luther Tillotson lived south of the town and may have had some involvement in its creation.  Chesapeake consisted of at least several houses; a country store operated by William Newell and Thomas Washburn; and a blacksmith shop.  There was also a school house there named for the town for many years; but this also is gone.,40.23333333,-87.43333333
Collins; Indiana ,Collins is an unincorporated community in Smith Township; Whitley County; in the U.S. state of Indiana.[3] It is commonly referred to as a 'ghost town'; however this is untrue; Collins just has a very low population and contains an abandoned school.,41.1975,-85.38666667
Conrad; Indiana ,Conrad is an unincorporated community in Lake Township; Newton County; in the U.S. state of Indiana.[2],41.105,-87.44333333
Corwin; Henry County; Indiana ,Corwin was a small settlement in Henry County; Indiana; United States.  Established in the mid 19th century; the site was little more than a station along the Pittsburg; Cincinnati and St. Louis Railway and never saw significant development.  Though the railroad (now operated as the Connersville and New Castle Railroad) still persists; no other trace of Corwin remains.,39.88333333,-85.28333333
Corwin; Tippecanoe County; Indiana ,Corwin was a small town; now extinct; in Randolph Township; Tippecanoe County; in the U.S. state of Indiana.,40.25138889,-86.91444444
Dresser; Indiana ,"Dresser was a small town in Steuben Township; Warren County; in the U.S. state of Indiana. It was founded shortly before the turn of the 20th century and consisted of several residences and a post office.  The post office operated only from 1899 to 1903.[1]  The town was named after Paul Dresser; the American songwriter who wrote ""On the Banks of the Wabash; Far Away"" (which became Indiana's state song); Harvey Porter Layton; the first postmaster; had met Dresser at the Hotel Mudlavia and was so impressed with the man that he named the town after him.",40.19888889,-87.44972222
Dunn; Indiana ,Dunn is an extinct town in Hickory Grove Township; Benton County; Indiana; United States.  Named for Capt. James Dunn;[3] it stands about one and a half miles east of Dunnington.  In the 1920s it had two general stores; a grain elevator and about half a dozen residences.[4] The post office at Dunn was established in 1907 and discontinued in 1913.[5][6],40.56388889,-87.46388889
Elkinsville; Indiana ,Elkinsville is an unincorporated community in Van Buren Township; Brown County; Indiana; United States. It was once a thriving farming village; but was evacuated during the construction of nearby Lake Monroe Reservoir by eminent domain in 1964. All that remains of Elkinsville today are some private residences; the Elkinsville Cemetery; and post office. The area is part of Hoosier National Forest.,39.07611111,-86.26472222
Elizabethtown; Delaware County; Indiana ,Elizabethtown was a small; now extinct town in northern Delaware County in Washington Township; Delaware County; Indiana.  The town was platted in the early 19th century and was located along the north bank of the Mississinewa river in section 12; of Washington Township; in Delaware County; Indiana.[1],40.37472222,-85.46111111
Glen Hall; Indiana ,Glen Hall is a small unincorporated community in Wayne Township; Tippecanoe County; in the U.S. state of Indiana.[2],40.35416667,-87.04083333
Granville; Indiana ,Granville is a former town in Wayne Township; Tippecanoe County; in the U.S. state of Indiana.,40.40694444,-87.03138889
Heath; Indiana ,Heath was a small town; now extinct; in Perry Township; Tippecanoe County; in the U.S. state of Indiana.,40.46138889,-86.73333333
Hindostan Falls; Indiana ,Hindostan Falls is an extinct unincorporated community in Center Township; Martin County; in the U.S. state of Indiana.[3],38.62444444,-86.85083333
Kickapoo; Indiana ,Kickapoo was a small town (now extinct) in Warren Township; Warren County; in the U.S. state of Indiana.,40.33,-87.23305556
Locust Grove; Warren County; Indiana ,"Locust Grove was a small town (now extinct) in Prairie Township; Warren County; in the U.S. state of Indiana; located three miles northeast of Tab.  A 1913 history describes the town's population as ""less than a hundred""; but all that remains at the site is the Locust Grove Church; Locust Grove Cemetery and a few homes.",40.44055556,-87.43472222
Marshfield; Scott County; Indiana ,Marshfield is an extinct town in Vienna Township; Scott County; in the U.S. state of Indiana; about three miles northwest of Scottsburg.  The GNIS classifies it as a populated place.[2],38.70916667,-85.78166667
Mortonsville; Indiana ,Mortonsville; also known as Martinsville;[1] is an extinct small town in Forest Township; Clinton County; Indiana in the United States.  In 1860 it gained a post office with Martin Davis as the first postmaster and; though on a contract route and not appearing in the official list of U.S. post offices; served the community for a number of years.,40.35,-86.31666667
Mollie; Indiana ,"Mollie is an extinct American village in Blackford County; Indiana; that flourished during the Indiana Gas Boom from the 1880s until the 1920s. The region around Mollie experienced an economic ""boom"" period because of the discovery of gas and crude oil. Mollie was a stop along the Fort Wayne; Cincinnati; and Louisville Railroad—and happened to be near the region's oil fields; a convenient location for the area's oil workers.",40.50833333,-85.315
Monument City; Huntington County; Indiana ,Monument City is a former settlement in Huntington County; Indiana.,40.75,-85.58333333
Point Pleasant; Indiana ,"Point Pleasant was a small village (now extinct) in Pine Township; Warren County; Indiana; located about a mile and a half southwest of Rainsville near the confluence of Big Pine Creek and Mud Pine Creek; a site currently known as Rocky Ford.  It was laid out by one John H. Bartlett and platted July 14; 1830; but never grew; and consisted only of Bartlett's residence; a liquor store and perhaps a saw mill.  An 1883 county history describes Point Pleasant; but notes that ""this was a paper town only.""",40.39722222,-87.33
Prairieville; Indiana ,Prairieville is an extinct town in Perry Township; Clinton County; Indiana; in the United States.  About five miles west of the town of Manson; it was abandoned during the 19th century.[1],40.395917,-86.2158483
Quaker; Indiana ,Quaker (or Quaker Point) is an unincorporated community in Vermillion Township; Vermillion County; in the U.S. state of Indiana.[2],39.86333333,-87.52777778
Randall; Indiana ,Randall is a former town in Helt Township; Vermillion County; in the U.S. state of Indiana.[2]  Randall is also 1.6 miles northwest of another extinct town: Toronto; on W County Road 700 S. The nearest extant community is the town of Dana; to the northeast.,39.775,-87.5225
Renner; Indiana ,Renner is an extinct American village in Indiana's Blackford County.[3]  Although Renner has been listed as a “populated place” by the U.S. Geological Survey;[4] this description is misleading.[citation needed]  Renner was a railroad stop on the Pittsburgh; Cincinnati and St. Louis Railroad.  The land around the railroad stop was originally used to supply timber for railroad crossties; and eventually became a livestock farm.  Housing for the families of the employees of the livestock farm was also located nearby.  Although it is not known for certain; Renner is thought to have been named for railroad executive John W. Renner.[5]  Renner was an executive of the Pittsburgh; Cincinnati and St. Louis Railroad; and later the Pennsylvania Railroad; and retired with over 50 years of railroad experience.[6]  Another community; Rennerdale; Pennsylvania; was named in his honor in 1895.[7][8],40.47222222,-85.43138889
Sheff; Indiana ,Sheff was the name of an interlocking tower that controlled the crossing of the New York Central (NYC) railroad and the NYC subsidiary; Big Four (CCC&StL) railroad.  It no longer exists. The site is in Benton County; Indiana; United States.,40.70416667,-87.44888889
Sloan; Indiana ,Sloan is an extinct town that was located on the border of Jordan Township and Steuben Township in Warren County; Indiana; less than a mile east of the town of Hedrick.,40.30166667,-87.47611111
Springville; Clark County; Indiana ,,38.4275,-85.68694444
Stringtown; Fountain County; Indiana ,Stringtown; or String Town; was a small mining settlement near Snoddy's Mill (now Coal Creek) in Wabash Township; Fountain County; Indiana in the United States.  An 1881 history of the county offers the following brief description:[1],40.04138889,-87.38055556
Toronto; Indiana ,Toronto is an extinct town in Helt Township; Vermillion County; in the U.S. state of Indiana. The site is near the Illinois and Indiana border.,39.78166667,-87.49555556
Tremont; Indiana ,Tremont; Indiana; is a ghost town formerly located in what is now the Indiana Dunes State Park and Indiana Dunes National Park in Westchester Township in northern Porter County; Indiana.  It was first established in 1833.  It was located at the intersection of U.S. Highway 12 and County Road 100 East; near Indiana 49. The community is named for three massive sand dunes that are now contained within the State park.  They are Mount Tom (200 feet (61 m) above the surrounding area); Mount Holden 170 feet (52 m); and Mount Green 160 feet (49 m).[1],41.64861111,-87.04361111
Vermont; Indiana ,"Vermont is an unincorporated community in Howard Township; Howard County; Indiana; United States platted in January 1848. The founders also then already had a store set up in Vermont.[3] In the late 19th century it was a German campground.[4] Vermont was in the flooding zone when the Wildcat Creek Reservoir was constructed in 1957; and it never recovered from that. Vermont was once the home of the ""Vermont Covered Bridge"" which now sits in Highland Park in Kokomo; Indiana.[5]  It is part of the Kokomo Metropolitan Statistical Area.",40.49916667,-86.03194444
Walnut Grove; Warren County; Indiana ,Walnut Grove was a small town (now extinct) in Prairie Township; Warren County; Indiana; located three miles east of Tab.  A 1913 history describes the town's population as about 50.,40.41111111,-87.41555556
Warrenton; Indiana ,Warrenton is an extinct town in Warren Township; Warren County; in the U.S. state of Indiana.  It was the county's original county seat.,40.30472222,-87.25833333
West Union (Busro); Indiana ,West Union (Busro) is an abandoned Shaker community in Busseron Township; northwestern Knox County; Indiana; about fifteen miles (24 km) north of Vincennes. The settlement was inhabited by the Shakers (United Society of Believers in Christ's Second Appearing) from 1811 to 1827. Though short-lived; West Union was the westernmost Shaker settlement.,38.89916667,-87.49472222
Big Spring; Iowa ,Big Spring is a ghost town located in Wayne County; Iowa; USA.[1],40.68333333,-93.52694444
Bryantsburg; Iowa ,Bryantsburg is an unincorporated community in Buchanan County; Iowa; United States. It is located on Highway 150 north of Independence and south of Hazleton; at 42.579132N; -91.905063W.[1],42.57472222,-91.90555556
Consolidation Coal Company (Iowa) ,,41.15833333,-92.81666667
Buchanan; Iowa ,Buchanan is an unincorporated community in Cedar County; Iowa; United States.[1],41.765,-91.24694444
Conover; Iowa ,Conover is a ghost town located in Winneshiek County; Iowa; United States.[1] It appears on the Fort Atkinson quadrangle of the United States Geological Survey topographic map and has been subsumed within the U.S. Postal Service ZIP code of nearby Calmar; Iowa.,43.21527778,-91.89472222
Donnan; Iowa ,Donnan is a former city in the U.S. state of Iowa; located in central Fayette County.[2] For many years; this farm hamlet was Iowa's smallest incorporated city. The town's population slowly eroded over the years; by 1990 the population had dropped to 7; and the remaining residents voted to disincorporate. Donnan ceased to exist as a city in early 1991.,42.89611111,-91.87805556
Doris; Iowa ,Doris and Bethel are twin town sites in Buchanan County; Iowa; United States; both located just north of Highway 939 in central Buchanan County near Independence. Founded as whistle-stops along the Chicago and North Western Railway; the sites are abandoned today.,42.48027778,-91.81444444
Dudley; Iowa ,"Dudley is a ghost town in Wapello County; Iowa; United States. Both 1908 and 1920 surveys of northwestern Wapello County show a post office at Dudley. A sign on the former edge of town reads: ""Population 12 and God only knows how many dogs and cats.""",41.08777778,-92.59194444
Elkport; Iowa ,Elkport is a city in Clayton County; Iowa; United States. The population was 37 at the 2010 census; down from 88 at the 2000 census.,42.74111111,-91.27555556
Green Island; Iowa ,Green Island is an unincorporated settlement in Jackson County; Iowa; United States.,42.15361111,-90.32194444
Green Valley; Iowa ,Green Valley was a town in Iowa county; Iowa. At one time it had a large number of people move from Hinkletown Iowa to Green Valley.,41.1025,-94.38638900000001
Hinkletown; Iowa ,Hinkletown was a small town in Keokuk county Iowa.[1],41.8780025,-93.097702
Iowaville; Iowa ,Iowaville was a small town on the lowland near the northeast bank of the Des Moines River; near the line between Davis and Van Buren counties; and between present-day Eldon and Selma; Iowa.[1]  It was established about 1838 near the site of earlier trading posts. Iowaville is now farm land with almost nothing to show the town location; but it is an important Iowa archaeological site.[2][3][4],40.87916667,-92.17722222
Ivanhoe; Iowa ,"Ivanhoe was a town in Franklin Township; Linn County; Iowa.[1]  It was founded by early Iowa settlers; and laid out as a town by Anton Cowles at the intersection of the Old Military Road and the Red Cedar River.[2]  It was laid out in 1838 and surveyed in 1841.  Ivanhoe was never platted; though it did have its own post office from 1845–49.[1] Unlike other towns founded around that time on the Old Military Road; Ivanhoe faded away; many of its residents relocated to Mount Vernon; Cedar Rapids; or Marion.[2]  The February 1921 edition of The Palimpsest describes the area as having been ""a refuge for horse thieves and dealers in counterfeit money""; though it is unclear if that was during the time that the town existed or afterwards.[2]",41.88333333,-91.4625
Lakewood; Iowa ,Lakewood is a ghost town in Lyon County; in the U.S. state of Iowa.[1],43.34694444,-96.16277778
Littleport; Iowa ,Littleport is an unincorporated community and former city in Clayton County; Iowa; USA. After the Volga River flood of May 16; 1999; much of the town was destroyed and most residents moved away. At the 2000 Census; there were 26 residents. Back at the 1960 Census there had been 119 residents.[1] There had been 139 people in 1950[2] and more than 200 people in 1916.[3] The town was laid out in 1857 by Dennis Quigley and platted on May 21; 1860; but remained of little importance until the coming of the railroad in 1874.[3][4] The town was not officially incorporated until 1907. Around this time; it had three general stores; a bank; blacksmith shop; Catholic church (built in 1909; torn down in 1990);[5] German Lutheran church (damaged by the May 1999 Volga River flood and later moved to higher ground);[6] an independent school district and a creamery.[3] Somewhat later; it also had two taverns.[7]  It was officially disincorporated in 2005.[8],42.75361111,-91.36888889
Midway; Johnson County; Iowa ,Midway is a ghost town in Johnson County; Iowa; United States. Midway was 5.5 miles (8.9 km) southeast of Iowa City.,41.61888889,-91.43916667
Motor; Iowa ,Motor is an unincorporated community in Clayton County; Iowa; United States.  The townsite is also a nationally recognized historic district listed as a historic site on the National Register of Historic Places in 1977.[1],42.80777778,-91.35138889
Mount Pisgah; Iowa ,Coordinates: 41°02′19″N 94°06′47″W﻿ / ﻿41.038586°N 94.113028°W﻿ / 41.038586; -94.113028,41.03861111,-94.11305556
National; Iowa ,,42.95231,-91.28588309999999
Shady Grove; Iowa ,Shady Grove is a former townsite and unincorporated community in Buchanan County; Iowa; United States; between the cities of Brandon and Jesup. Settlement of Shady Grove began in 1857; but with the advent of rural migration; the population had dropped to 25 by the 1950s. New housing developments begun during the 1990s and 2000s; however; have caused the empty community to be reborn; causing controversy along the way.,42.37694444,-92.05527778
Siegel; Iowa ,Siegel is a ghost town in Douglas Township in Bremer County; Iowa; United States. Founded in 1889; the community ceased to exist in the 1940s.,42.82888889,-92.35694444
Strahan; Iowa ,Strahan was a town in Mills County; Iowa.,40.94972222,-95.49916667
River Junction; Iowa ,River Junction is an unincorporated community in Johnson County; Iowa; United States.[1] It was named after its location at the confluence of the English and Iowa Rivers.,41.49055556,-91.49694444
Unique; Iowa ,Unique; Iowa was a hamlet in Weaver Township; Humboldt County; Iowa; United States.,42.71722222,-94.34527778
White Pigeon; Iowa ,White Pigeon was a town in Keokuk County; Iowa.[1],41.49611111,-92.17111111
Barthell; Kentucky ,Barthell is a former coal town in McCreary County; Kentucky; United States. It was established in 1902 and was the first of 18 mining camps to be built by the Stearns Coal and Lumber Company. It now serves as an open-air history museum; which is open from April through Thanksgiving.,36.68638889,-84.52527778
Bells Mines; Kentucky ,Coordinates: 37°30′35″N 88°01′20″W﻿ / ﻿37.5097°N 88.0222°W﻿ / 37.5097; -88.0222,37.50972222,-88.02222222
Blue Heron; Kentucky ,Blue Heron; also known as  Mine 18; is a former coal mining community or coal town on the banks of the Big South Fork of the Cumberland River in McCreary County; Kentucky; United States; that has been recreated and is maintained as an interpretive history area in the Big South Fork National River and Recreation Area.[3],36.67138889,-84.54555556
Burgess Railroad Station; Kentucky ,Burgess Railroad Station was an unincorporated community located in Boyd County; Kentucky; United States. It is located on a CSX railway and is served by the Catlettsburg post office zip code of 41129.,38.2725,-82.58138889
Creelsboro; Kentucky ,Creelsboro is a ghost town in Russell County; Kentucky; United States. The historic town was thriving some sixteen years before Russell County was formed. It was named for Elijah Creel; an early settler; and was at one time the busiest river port on the Cumberland River between Nashville; Tennessee; and Burnside; Kentucky.  The town hosted a bank; school; three stores and a building that provided lodging for steam boat passengers.  Creelsboro was a major trade center along the Cumberland River in the 19th century; although its actual population was only about 50. With the construction of the Wolf Creek Dam; traffic from steamboats and other vessels greatly decreased. Creelsboro's current population primarily are involved in agriculture.  Many tourists visit the area to access the Cumberland River for trout fishing and other recreational boating activities.,36.885,-85.1975
Fudge; Kentucky ,,37.760404,-84.84328599999999
Golden Pond; Kentucky ,Golden Pond is a ghost town in western Trigg County; Kentucky; United States. The town is located in the Land Between the Lakes National Recreation Area 11 miles (18 km) west-southwest of Cadiz. Golden Pond was established in the 19th century and became known for its moonshining activity during Prohibition. The settlement was abandoned in 1969 when the land in the recreation area was evacuated.,36.78555556,-88.02416667
Hilltop; Mercer County; Kentucky ,Hilltop is a ghost town in Mercer County; Kentucky; United States. Hilltop was located along what is now Kentucky Route 152 3.4 miles (5.5 km) east of Mackville.,37.74,-85.00583333
Jonkan; Kentucky ,Jonkan (also known as Jonican) is a ghost town in Pike County; Kentucky; United States. Jonkan was located along Jonican Branch and Jonican Road 7.2 miles (11.6 km) east-southeast of Pikeville. The community is still marked on county highway maps.[2],37.44944444,-82.39222222
Neal; Kentucky ,Neal; Kentucky is a mostly extinct hamlet located south of Catlettsburg near the oil refining facility formerly owned by  Ashland Oil and Refinining Co.; Inc. and its current owner Marathon Petroleum's Catlettsburg Refinery is located here.  At its peak; Neal had a population of over 200 but this declined as Ashland Oil purchased most of the property here from the residents to enlarge the refinery.  U.S. Route 23 extended throughout the community until it was replaced with a modern four lane alignment in 1987.  The Kentucky Department of Highways renumbered it KY 757 after the realignment.  Then; in 1999; Marathon purchased the highway from state and it now ends just south of Neal at a security gate.  Systematically Marathon has purchased the community and very little of Neal's homes and businesses remain.  Neal is located at approximately 38°19′30″N 82°35′00″W﻿ / ﻿38.32500°N 82.58333°W﻿ / 38.32500; -82.58333 in southeastern Boyd County; across the Big Sandy River from West Virginia.,38.325,-82.58333333
Packard; Kentucky ,Packard is a ghost town in Whitley County; Kentucky; United States. Packard was located 7 miles (11 km) southeast of Williamsburg.  It was founded as a mining camp by the Thomas B. Mahan family around 1900. Packard's population is thought to have reached at one point nearly 400 residents.[2] The community was a coal town which served the Packard Coal Company; the community and the company were named after Whitley County school teacher Amelia Packard. Packard once had a railway station on the Louisville and Nashville Railroad as well as a post office; which opened on November 27; 1908.,36.6675,-84.05583333
Paradise; Kentucky ,Paradise was a small town in Muhlenberg County; Kentucky; United States. The town was located 10.5 miles east-north-east of Greenville and was formerly called Stom's Landing (sometimes incorrectly spelled Stum).[1][2] It was once a trading post along the Green River; but it no longer exists. It was torn down in 1967 by the Tennessee Valley Authority due to health concerns over its proximity to a nearby coal-burning electric plant; Paradise Fossil Plant.,37.26805556,-86.98361111
Scuffletown; Henderson County; Kentucky ,Scuffletown is a ghost town in Henderson County in the western part of the U.S. state of Kentucky.  Located on the Ohio River just above the mouth of Green River; it was a city for barely 100 years but is legendary in the area because of activities there during the American Civil War and its rough reputation.,37.92277778,-87.37222222
Sugartit; Kentucky ,Sugartit (formerly known as Pleasant Ridge and later as Gunpowder in the 1920s)[a][3][4] is a rural community in Boone County; Kentucky; United States. It was located at the intersection of U.S. Route 42 and Kentucky Route 237 between the cities of Florence and Union.[5] Sugartit has been noted for its unusual place name.[2][6],38.97277778,-84.66277778
Albany; Caddo Parish; Louisiana ,Albany is a ghost town in Caddo Parish; Louisiana; United States.,32.6125,-93.83194444
Alma; Louisiana ,"Alma was the name of a community located in southeastern Pointe Coupee Parish; Louisiana; United States. The community was located east of Lakeland. The area is currently home to Pointe Coupee Parish's only operating sugar mill; Alma Plantation. Alma is one of only 11 sugar mills still operating in the state of Louisiana.[1]  It produces raw sugar and blackstrap molasses. During the harvesting of sugar cane; known locally as ""the grinding season""; Alma Plantation becomes one of the area's largest employers. Sugar cane is brought to this mill for processing from a number of surrounding parishes.",30.59638889,-91.38944444
Anchor; Louisiana ,Anchor was the name of a community located in southeastern Pointe Coupee Parish; Louisiana; United States. The community was located along the Mississippi River; north of the Pointe Coupee - West Baton Rouge Parish line.,30.68361111,-91.355
Bayou Chene; Louisiana ,Bayou Chene (translated to Oak Bayou) was previously a small unincorporated community in St. Martin Parish; Louisiana; United States. The community was located in the Atchafalaya Basin.,30.14111111,-91.53694444
Burrwood; Louisiana ,Burrwood was a community located near the far south end of the delta of the  Mississippi River in Plaquemines Parish; Louisiana; United States. At one time the town had an estimated population of 1;000; but today it is uninhabited; with most of its territory fully or partially submerged by coastal erosion.,28.96805556,-89.3775
East Krotz Springs; Louisiana ,"East Krotz Springs is a ghost town that was located in Pointe Coupee Parish's 1st Ward; approximately 12 miles west of Livonia; Louisiana; United States. The site of the town itself is located at coordinates 30°32'12.87""N; 91°44'24.59""W; and is abandoned. United States Geological Survey maps from 1948 show the town to be located on the east bank of the Atchafalaya River at the mouth of Bayou Sherman; directly across from Krotz Springs; south of the railroad bridge.[1]",30.53333333,-91.73333333
Elliot City; Louisiana ,Elliot City is a ghost town that was located in Pointe Coupee Parish's 10th Ward; approximately 6 miles west of Livonia; Louisiana United States. The site of the town itself is located at coordinates 30.55614N; 91.66520W; and is covered or partially covered by the current U.S. Route 190 roadway.,30.55611111,-91.66527778
False River; Louisiana ,False River was an unincorporated community located in southern Pointe Coupee Parish; Louisiana; United States. It was situated near present-day New Roads and the current lake of False River.,30.57055556,-91.59277778
La Balize; Louisiana ,"La Balize; Louisiana; was a French fort and settlement near the mouth of the Mississippi River; in what later became Plaquemines Parish.  The village's name (also spelled La Balise) meant ""seamark."" La Balize was historically and economically important for overseeing the river. It was rebuilt several times because of hurricane damage.[1] The active delta lobe of the river's mouth is called the Balize Delta; after the settlement; or the Birdfoot Delta; because of its shape.",29.1225,-89.10722222
Morrisonville; Louisiana ,Morrisonville was a small town in Iberville Parish; Louisiana; United States that was contaminated with industrial pollution from a nearby Dow Chemical Company vinyl chloride factory.[1] The town's residents - predominantly African American - were relocated in 1990 to Morrisonville Estates in Iberville Parish and Morrisonville Acres in West Baton Rouge Parish by Dow.[2],30.32222222,-91.22472222
Red River Landing; Louisiana ,Red River Landing was the name of a community located in northern Pointe Coupee Parish; Louisiana; United States. The community was located near the Red River and the Mississippi River.,30.95944444,-91.665
Ruddock; Louisiana ,Ruddock is a ghost town in St. John the Baptist Parish; Louisiana; United States. Ruddock was located on an isthmus between Lake Maurepas and Lake Pontchartrain; 10 miles (16 km) north-northeast of LaPlace.,30.20444444,-90.425
Sherburne; Louisiana ,Sherburne is a ghost town located in Pointe Coupee Parish; Louisiana; United States in the Atchafalaya National Wildlife Refuge.,30.515,-91.71888889
Taft; Louisiana ,Taft is a census-designated place (CDP) in St. Charles Parish; Louisiana; United States; located on the west bank of the Mississippi River.  According to the 2000 census; Taft had a total population of zero.,29.99138889,-90.44805556
Torras; Louisiana ,Torras is the name of a former town in the extreme northeastern corner of Pointe Coupee Parish; Louisiana; United States.[1] The town was located along either side of the Texas & Pacific Railroad at its juncture with Lower Old River. The Mississippi River is located just to the east and the juncture of the Red and Atchafalaya Rivers just to the west.,30.98972222,-91.67888889
Waterloo; Louisiana ,Waterloo is the name of a former town at the upriver juncture of the False River oxbow on the west bank of the Mississippi River in Pointe Coupee Parish; Louisiana; United States. Founded circa 1820; the community grew as a bustling export center for cotton and sugar cane produced in Pointe Coupee Parish.,30.69472222,-91.35722222
Isles of Shoals ,The Isles of Shoals are a group of small islands and tidal ledges situated approximately 6 miles (10 km) off the east coast of the United States; straddling the border of the states of Maine and New Hampshire.,42.98138889,-70.61138889
Askwith (Maine) ,Askwith is a ghost town located in Piscataquis County; Maine; United States. Between the towns of Greenville and Rockwood; specifically near Misery Knob; the town had at one time a post office. In 1895 there were no post offices; nor were there express offices; however there was a railroad. Askwith has since been renamed to 'Tarratine' and discontinued as a railroad station. The railroad that once ran through it has been converted into an ATV trail.,45.61611111,-69.83888889
Flagstaff; Maine ,Flagstaff is a ghost town and former town in Somerset County; Maine; United States; near the existing town of Eustis and about 20 miles north of Rangeley. ,45.15,-70.21666667
Perkins Township; Maine ,Perkins Township (Swan Island) is an unorganized territory in Sagadahoc County; Maine; United States.  Originally incorporated as the town of Perkins; it has been uninhabited since being abandoned by the 1940s. The township comprises Swan Island; Little Swan Island and some tidal flats - all within the Kennebec River between the towns of Richmond and Dresden.  The Swan Island Historic District comprises most of the township; with 8 buildings; 5 structures and 1;500 acres (610 ha). Some of the buildings date to the 1750s. The district was added to the National Register of Historic Places in 1995.  The entire township is now protected as the Steve Powell Wildlife Management Area; and is under the jurisdiction of the Maine Department of Inland Fisheries and Wildlife.  Camping; hunting; fishing; and wildlife viewing are permitted between May and October; reservations are required.,44.04611111,-69.80166667
Altamont; Maryland ,Altamont is an unincorporated community in Garrett County; Maryland; United States.[1]  Altamont sits on the Eastern Continental Divide between the watershed of Crabtree Creek; which flows into the Savage River and eventually into the Atlantic Ocean; and the watershed of the Little Youghiogheny River; which flows into the Youghiogheny River and eventually into the Gulf of Mexico.  Altamont is notable as the spot at which the B&O Railroad crossed the divide.  Today; that same spot is crossed by CSX's Mountain Subdivision.  Altamont also features the intersection of Maryland Route 135 (MD 135) and MD 495.,39.4275,-79.28194444
Blooming Rose; Maryland ,,39.656749,-79.4392067
Broad Creek; Maryland ,Broad Creek  was a town on western Kent Island; Maryland that existed from the 17th century to the 19th century.  The town once served as the eastern terminus of a trans-Chesapeake Bay ferry line [1] that was part of an early route between Annapolis and Philadelphia.,38.97416667,-76.32916667
Daniels; Maryland ,Daniels is a ghost town straddling the Patapsco River east of Woodstock and north of Old Ellicott City in Baltimore County and Howard County; Maryland; United States. It is the location of the Daniels Mill; a site listed on the National Register of Historic Places.[1] It is the home town of former Howard County Executive and State Senator James N. Robey. A postal office operated in the community from 1 March 1943 to 31 August 1971.[2],39.31666667,-76.81638889
Davis; Maryland ,,39.345659399999995,-77.19692679999999
Frankville; Maryland ,,31.646549199999995,-88.1475089
Kempton; Maryland ,,39.20677379999999,-79.4853308
Kendall; Maryland ,,39.6334171,-79.41754
Lapidum; Maryland ,Lapidum is a ghost town in Harford County; Maryland; USA; located at the head of navigation of the Susquehanna River on the west bank across from Port Deposit.,39.59777778,-76.12888889
Selbysport; Maryland ,Selbysport is an unincorporated community in Garrett County; Maryland; United States.[1] Mercy Chapel at Mill Run was listed on the National Register of Historic Places in 1984.[2],39.68638889,-79.38027778
Sinepuxent; Maryland ,Sinepuxent or Sinepuxent Town was a village in Worcester County; Maryland; located on Sinepuxent Neck across Sinepuxent Bay from the barrier island of Assateague.  The village was destroyed by a hurricane in 1818[1] and never rebuilt.  Its location arose in large part from its convenience to ocean-going ships: an inlet—Sinepuxent Inlet—allowed access through Assateague Island from the Atlantic Ocean to Sinepuxent Bay; until it was closed by the same hurricane that destroyed the village.,38.31305556,-75.15194444
Skipnish; Maryland ,,39.0457549,-76.6412712
Thomas; Maryland ,,38.5715097,-76.27689090000001
East Vindex; Maryland ,East Vindex is an unincorporated community in Garrett County; Maryland; United States. The town is located near the Maryland/West Virginia border. There is also a West Vindex. East Vindex is 2.1 miles (3.4 km) north of Kitzmiller.,39.41777778,-79.18722222
Wagner's Point; Baltimore ,Wagner's Point is an industrial area in Baltimore; Maryland.[1],39.23444444,-76.56888889
Wallman; Maryland ,,39.317046399999995,-79.2839298
Wilson (ghost town); Calvert County; Maryland ,Wilson is a ghost town in Calvert County; Maryland; United States. Wilson was located in northern Calvert County along what is now Maryland Route 260; 2.15 miles (3.46 km) northeast of Dunkirk. Wilson appeared on USGS maps as late as 1901.[1],38.7375,-76.62611111
Catamount; Massachusetts ,Catamount is a former village of Colrain; Massachusetts.  In 1812; the schoolhouse that once stood in Catamount was the first schoolhouse to fly the United States Flag.[1],42.65305556,-72.75611111
Dana; Massachusetts ,Dana was a town located in Worcester County; Massachusetts. Dana was lost as a result of the formation of the Quabbin Reservoir.,42.42194444,-72.2275
Davis; Massachusetts ,Davis; Massachusetts is the abandoned location of the Davis Pyrite Mine. located in the town of Rowe; Massachusetts. Once the largest iron pyrite-mine in Massachusetts; Davis grew to be a decent sized mining village at the beginnings of the Second Industrial Revolution (1870–1915).  But; in 1911; a non-fatal collapse of the mine due to “poor mining practices” ended the nearly 30-year run.  By 1937; the mining camp had faded; and all that remained were a blacksmith shop and about 150 cellar holes.,42.69777778,-72.87027778
Dogtown; Massachusetts ,Dogtown (also Dogtown Commons or Dogtown Common or Dogtown Village) is an abandoned inland settlement on Cape Ann in Massachusetts.,42.63888889,-70.65416667
Enfield; Massachusetts ,Enfield was a town in Hampshire County; Massachusetts. The town was lost as a result of the creation of the Quabbin Reservoir.,42.31666667,-72.33277778
Greenwich; Massachusetts ,Greenwich (/ˈɡrinwɪtʃ/)[1] was a town in Hampshire County; Massachusetts. The town was lost as a result of the formation of the Quabbin Reservoir in order to supply Boston's growing water needs.,42.35916667,-72.29638889
Leverett; Massachusetts ,Leverett is a town in Franklin County; Massachusetts; United States. The population was 1;876 as of the 2010 census.[1] It is part of the Springfield; Massachusetts Metropolitan Statistical Area.,42.45194444,-72.50194444
Long Point (Cape Cod) ,Long Point is a peninsula located in Provincetown; Massachusetts; at the extreme tip of Cape Cod; as it curls back in on itself to create Provincetown Harbor.  The Long Point Light was built on this point in 1827.  The lighthouse once shared this peninsula with a settlement of fishermen that came to be known as Long Point; Massachusetts.  This Provincetown village grew and thrived from 1818 until the late 1850s.   When the settlers decided to leave Long Point; they took most of their houses with them – about 30 homes in all – by floating them across the harbor.[2][3],42.02694444,-70.17194444
Prescott; Massachusetts ,Prescott was a town in Hampshire County; Massachusetts.  It was incorporated in 1822 from portions of Pelham and New Salem; and was partially built on Equivalent Lands. It was named in honor of Colonel William Prescott; who commanded the American forces at the Battle of Bunker Hill. It was unincorporated on April 28; 1938; as part of the creation of the Quabbin Reservoir. It was the least populous of the four unincorporated towns; with barely 300 residents by 1900. Upon dissolution; portions of the town were annexed to the adjacent towns of New Salem and Petersham. The majority of the former town (the New Salem portion) is still above water; and is known as the Prescott Peninsula. The public is not allowed on the peninsula except for an annual tour given by the Swift River Valley Historical Society; or for hikes conducted by the Society. None of the land is in Hampshire County any  longer; the New Salem portion is in Franklin County; and the Petersham portion is in Worcester County.,42.39166667,-72.34472222
Questing (New Marlborough; Massachusetts) ,Questing is a 438-acre (177 ha) open space preserve and colonial era historic site located in New Marlborough; Massachusetts within The Berkshires. The property; acquired in 1996 by the land conservation non-profit organization The Trustees of Reservations; is named for a mythical beast from Arthurian Mythology called the Questing Beast.,42.12194444,-73.25166667
Whitewash Village; Massachusetts ,"Whitewash Village was a village settlement on Monomoy Island in Massachusetts; established sometime around 1710. The village received its name from the belief that the settlement contained vestiges of a strong economic framework which had lasted for many years; and had been ""bestowed upon it.""[1]  A tavern for sailors was opened up in the location of today's Hospital Pond; known then as Wreck Cove.",41.55,-69.98333333
Bankston; Mississippi ,Bankston is a ghost town in Choctaw County; Mississippi; United States.  The nearest community is French Camp; located 8 mi (13 km) south-southwest.,33.39722222,-89.36666667
Brewton; Mississippi ,Brewton; Mississippi is a ghost town in Jackson County; Mississippi; United States.,30.63361111,-88.65833333
Camargo; Mississippi ,Camargo is a ghost town in Monroe County; Mississippi; United States.,34.07083333,-88.64861111
Colony Town; Mississippi ,Colony Town is a ghost town in Leflore County; Mississippi. Colony Town is approximately 7 miles (11 km) west of Itta Bena and approximately 6 miles (9.7 km) east of Moorhead .,33.45472222,-90.41027778
Commerce; Mississippi ,Commerce is a ghost town in Tunica County; Mississippi; United States. Commerce Landing was the town's port.,34.81944444,-90.38027778
Cotton Gin Port; Mississippi ,Cotton Gin Port is a ghost town in Monroe County; Mississippi; United States.,33.97083333,-88.54305556
Fort Adams; Mississippi ,Fort Adams is a small; river port community in Wilkinson County; Mississippi; United States;[1] about 40 miles south of Natchez. It is notable for having been the U.S. port of entry on the Mississippi River; before the acquisition of New Orleans; it was the site of an early fort by that name.,31.08666667,-91.54805556
Gainesville; Mississippi ,Gainesville is a ghost town located in Hancock County; Mississippi.,30.35111111,-89.63972222
Grand Gulf Military State Park (Mississippi) ,Grand Gulf Military State Park is a Mississippi state park located 10 miles northwest of Port Gibson in the unincorporated area that is now the ghost town of Grand Gulf; in Claiborne County. It is listed on the National Register of Historic Places and is a Mississippi Landmark.,32.03333333,-91.05
Holcut; Mississippi ,Holcut was a small town located in Tishomingo County; Mississippi; United States.[1] In 1976;  the U.S. Army Corps of Engineers bought out and demolished the town because it lay in the path of the Divide Cut; a 29-mile (47 km) canal section of the Tennessee–Tombigbee Waterway; which was constructed between 1972 and 1984.[2][3],34.72972222,-88.30583333
Holmesville; Mississippi ,Holmesville is an Unincorporated community  in Pike County; Mississippi; United States.,31.20361111,-90.30861111
Hopewell; Calhoun County; Mississippi ,Hopewell is a ghost town in Calhoun County; Mississippi; United States.[1],33.77361111,-89.30777778
Inwood; Mississippi ,Inwood is a ghost town located in Sunflower County; Mississippi; on Mississippi Highway 3.,33.50583333,-90.52472222
Napoleon; Mississippi ,Napoleon is an unincorporated community in Hancock County; Mississippi; United States.[1],30.32638889,-89.6275
Old Town; Calhoun County; Mississippi ,Old Town (originally Hartford) is a ghost town in Calhoun County; Mississippi; United States.,33.98805556,-89.29916667
Palo Alto; Mississippi ,Palo Alto (also Savannah) is a ghost town in Clay County; Mississippi.[2]  Established c. 1846;[1] it is located at 33°40′50″N 88°48′0″W﻿ / ﻿33.68056°N 88.80000°W﻿ / 33.68056; -88.80000 (33.6806738; -88.8000525) at an elevation of 279 feet (85 m).[2],33.68055556,-88.8
Prentiss; Bolivar County; Mississippi ,"Prentiss (also known as ""Wellington""; ""Indian Point Landing""; and ""Indian Town"") is a ghost town in Bolivar County; Mississippi; United States.",33.77194444,-91.08583333
Rocky Springs; Mississippi ,Rocky Springs is a ghost town and historic site located in Claiborne County; Mississippi; United States; between Old Port Gibson Road and the Natchez Trace Parkway (mile post 54.8). The old town site can be viewed by the public during daylight hours. Rocky Springs and the surrounding area is maintained by the National Park Service.,32.08888889,-90.815
Rodney; Mississippi ,,31.86138889,-91.19972222
Sand Hill; Attala County; Mississippi ,Sand Hill is a ghost town in Attala County; Mississippi; United States. Sand Hill was 7.8 miles (12.6 km) east of West.,33.19722222,-89.64166667
Selsertown; Mississippi ,Selsertown is an extinct town in Adams County; Mississippi; United States.[1],31.62805556,-91.23611111
Tocowa; Mississippi ,Tocowa is a Ghost town located just outside Batesville in Panola County; Mississippi; United States.[1],34.22361111,-90.05972222
Westville; Simpson County; Mississippi ,Westville was an unincorporated community in Simpson County; Mississippi; United States; located approximately 1.8 mi (2.9 km) southeast of Pinola. It is now considered a ghost town.,31.86638889,-89.94138889
Woolworth; Mississippi ,Woolworth is a ghost town located in rural northeast Lincoln County; Mississippi; United States.[1],31.63333333,-90.27333333
Uniontown; Mississippi ,Uniontown is a ghost town in Jefferson County; Mississippi; United States.,31.75861111,-91.17277778
Victoria; Bolivar County; Mississippi ,Victoria is a ghost town in Bolivar County; Mississippi; United States.,33.92833333,-91.00055556
Yale; Mississippi ,Yale is a ghost town in Itawamba County; Mississippi; United States.[1],34.31666667,-88.22916667
Arlington; Missouri ,Arlington is an unincorporated community[1] in western Phelps County; Missouri; United States; along a county road that was once U.S. Route 66. The town found its prosperity in the mid-19th century. Located near Rolla on the Ozark Plateau; the only remaining business at Arlington was a RV park that closed permanently in 2008.,37.92027778,-91.97111111
Bloodland; Missouri ,Bloodland is a former community in southern Pulaski County; Missouri; United States.[1] The community lies within Ft. Leonard Wood. The location is about 3.5 miles west-northwest of the community of Big Piney which sits adjacent to the east boundary of the Fort Leonard Wood and 4.5 miles north of the community of Palace; which is just outside the southern boundary of Fort Leonard Wood.[2],37.68722222,-92.15222222
Columbia Bottom Conservation Area ,The Columbia Bottom Conservation Area is a 4;256-acre (17.22 km2) conservation area located on the south side of the Missouri River at its confluence with the Mississippi River.  The conservation area; which is located in eastern St. Louis County; Missouri; north of the city of St. Louis; is operated by the Missouri Department of Conservation.  One key asset is 6.5-mile (10.5 km) of river frontage for boating; fishing; and birdwatching.[1],38.80805556,-90.15166667
Cookville; Missouri ,Cookville is an extinct town in southwestern Pulaski County; in the U.S. state of Missouri. The GNIS classifies it as a populated place.[1] The town site is along Roubidoux Creek within the southern part of Fort Leonard Wood. The community of Greenview is located two miles to the west on Missouri Route 17 along the western boundary of the military reservation and adjacent to the Pulaski-Laclede county line.[2],37.64888889,-92.21
Georgia City; Missouri ,Georgia City is the name of a former town in Jasper County; Missouri; United States; approximately 15 miles north of Joplin.,37.27388889,-94.54333333
Hamburg; Missouri ,Hamburg was a small town in St. Charles County; Missouri; United States. Hamburg was one of three towns; along with nearby Howell and Toonerville; that were evacuated in 1940-1941 as the area was taken over by the U.S. Department of the Army for the Weldon Spring Ordnance Works; which manufactured trinitrotoluene (TNT) and dinitrotoluene (DNT) and later processed uranium.[1],38.66972222,-90.73166667
Holman; Missouri ,Holman is an extinct town in Webster County; in the U.S. state of Missouri. The GNIS classifies it as a populated place.[1] The site is located on Missouri Supplemental Route OO; approximately fifteen miles (24 km) northeast of Springfield.,37.27305556,-93.05333333
Hopewell; Daviess County; Missouri ,Hopewell is a former unincorporated community in Daviess County; Missouri; United States. ,39.91502020000001,-93.9618087
Hopewell; Mississippi County; Missouri ,Hopewell is a former unincorporated community in Mississippi County; Missouri; United States. It was a small settlement in northeastern Ohio Township.,36.8661576,-89.3226954
Hopewell; Washington County; Missouri ,Hopewell is an unincorporated community in eastern Washington County; Missouri; United States.[1] The community lies on Hopewell Creek; south of Summit and Missouri Route 8.[2],37.8875,-90.70277778
Howell; Missouri ,Howell is an unincorporated community in St. Charles County; in the U.S. state of Missouri.[1]  Much of the community has been annexed by St. Peters.,38.74305556,-90.61083333
Lakeside Estate; Missouri ,Lakeside Estate is a former settlement in Benton County; Missouri; United States. Lakeside Estate was a resort community on the Osage River in southern Cole Township.[1],38.732791399999996,-93.7347479
Melva; Missouri ,Melva is an extinct town in southern Taney County; in the Ozarks of southwest Missouri. The GNIS classifies it as a populated place.[1] The site was located south of Hollister on the east bank of Turkey Creek along the Missouri Pacific Railroad line.[2],36.57694444,-93.21222222
Monark Springs; Missouri ,Monark Springs is a ghost town in Newton County; Missouri; United States. It is located approximately five miles east of Neosho.,36.86444444,-94.29166667
Phenix; Missouri ,Phenix is an unincorporated community in northwest Greene County; in the U.S. state of Missouri.[1] The community is located on the banks of Sugar Creek; approximately 2.5 miles south of Walnut Grove and 1.5 miles west of Harold and Missouri Route 123.[2],37.37861111,-93.54583333
Possum Trot; Missouri ,Possum Trot is a former town in northeastern Stone County; Missouri; United States.[1] It is located approximately 5.5 miles (8.85 km) southwest of Nixa on Missouri Route M.[2] Only the remains of a school named Fairview and a house are left. Fairview was a one-room school which had grades 1 through 8 and was locally called Possum Trot School. ,36.97861111,-93.42916667
Saint Annie; Missouri ,Saint Annie is an unincorporated community in eastern Laclede County; Missouri; United States. It is approximately 3 miles (4.8 km) east of Nebo. The community is located on Missouri Route U.,37.57194444,-92.27416667
Times Beach; Missouri ,Times Beach is a ghost town in St. Louis County; Missouri; United States; 17 miles (27 km) southwest of St. Louis and 2 miles (3 km) east of Eureka. Once home to more than two thousand people; the town was completely evacuated early in 1983 due to TCDD contamination. It was the largest civilian exposure to dioxin in the history of the US.,38.50861111,-90.6025
Toonerville; Missouri ,Toonerville is an unincorporated community in St. Charles County; in the U.S. state of Missouri.,38.69166667,-90.73333333
Wayman; Missouri ,Wayman is a ghost town in Pulaski County; Missouri; United States. The town was located southeast of Waynesville; Missouri and was named for a pioneer family. The town was abandoned by 1938.[1][2],39.00900479999999,-94.55794990000001
Wakenda; Missouri ,Wakenda is an unincorporated community in Carroll County; in the U.S. state of Missouri.[3],39.31416667,-93.37722222
Xenia; Missouri ,Xenia is an extinct community in Nodaway County; Missouri; in the United States. The exact location of Xenia is unknown to the GNIS.[1],40.47388889,-94.78111111
Andrews; Nebraska ,Andrews is an unincorporated community in Sioux County; Nebraska; United States.[1],42.63138889,-103.91722220000001
Appleton; Nebraska ,,40.836644,-96.60365809999999
Armour; Nebraska ,Armour is an extinct town in Pawnee County; in the U.S. state of Nebraska.[1],40.1,-96.4
Ashford; Nebraska ,Coordinates: 41°38′28″N 103°40′30″W﻿ / ﻿41.641°N 103.675°W﻿ / 41.641; -103.675,41.63333333,-103.66666670000001
Belmont; Nebraska ,Belmont is a semi-ghost town in Dawes County; Nebraska; about 11 miles (18 km) southeast of Crawford. Originally known as Evergreen City; the settlement was existent by summer 1889; thanks to the construction of the Belmont Tunnel. However; when the town site was surveyed in 1890; only five blocks were sold. Belmont reached its population peak of around eighty residents in the late 1920s. The trend of declining population started with the Great Depression and accelerated with changes in transportation. Improved vehicles meant that shopping and selling of farm products could be done in larger towns nearby; and the Burlington Railroad ceased passenger service in 1969.,42.54972222,-103.3566667
Bookwalter; Nebraska ,Bookwalter is an unincorporated community in Pawnee County; Nebraska; in the United States.[1],40.1,-96.4
Breslau; Nebraska ,Breslau is an unincorporated community in Pierce County; Nebraska; United States.[1]  It is located on U.S. Route 20; approximately equidistant from Plainview and Osmond; at the corner of 541st Avenue.,42.35027778,-97.69888889
Butler; Nebraska ,,41.1375727,-97.17902600000001
Cincinnati; Nebraska ,,39.1593552,-84.45492409999999
DeWitty; Nebraska ,"DeWitty; later renamed Audacious; was a village in Cherry County; Nebraska; United States. The settlement; which was founded in 1907 and disincorporated in 1936; was located 10 miles (20 km) north and west of Brownlee.[1] DeWitty was Nebraska's ""largest and most permanent colony"" of African American homesteaders.[2][3]",42.474114,-101.16173559999999
Dobytown; Nebraska ,Dobytown is a ghost town in Kearney County; Nebraska; United States;[2] three miles west of Fort Kearny. Officially named Kearney City; the community was established in 1859. The town was given the common name of Dobytown because it contained mostly adobe buildings.[3]  Although the community no longer exists;[2] the site was added to the National Register of Historic Places in 1974.[1]  The site is located at an altitude of 2;129 feet (649 m).[2],40.64166667,-99.0475
Duff; Nebraska ,Duff is an unincorporated community in Rock County; Nebraska; in the United States.[1],42.2,-99.6
Dunwell; Nebraska ,Dunwell; now a ghost town; was a community in Hooker County; Nebraska; United States.  A post office was operated in Dunwell for over thirty years; opening on 27 January 1900 and closing in 1934.  The community's elevation and geographic coordinates are unknown;[1] although a 1914 map reveals that it lay midway between Mullen and Tryon.,41.4925374,-99.9018131
Factoryville; Nebraska ,Factoryville is a ghost town in Cass County; Nebraska; United States.[1] Located approximately halfway between Union and Nehawka; the town straddled the Lincoln-Union Highway and neighbored a smaller village called Mount Pleasant. It once featured a flour mill; stores; hotels; a post office; and a Methodist college called Factoryville College. Founded in the late 1850s; in 1873 its name was changed to Union Mills; and in 1880 it was changed back to Factoryville.[2] The post office was established in the late 1860s when a local named Isaac Pollard was traveling to the Eastern United States. Along the way he stopped in Washington; D.C.; where he selected the name Factoryville; along with the name Nehawka for a neighboring town.[3],40.8,-95.96666667
Glen; Nebraska ,Glen is an unincorporated community in Sioux County; Nebraska; United States.[1]  It was named for the surrounding glen.[2][3],42.6075,-103.5838889
Homerville; Nebraska ,,40.466684,-99.8597585
Jacksonville; Nebraska ,,30.3321838,-81.655651
Koesterville; Nebraska ,,41.396230200000005,-99.3813222
Linton; Nebraska ,,40.813615999999996,-96.7025955
Marsland; Nebraska ,Marsland is an unincorporated community in northwestern Dawes County; Nebraska; United States.  It lies on the Niobrara River along Nebraska Highways 2 and 71; 18 miles south of Crawford; and southwest of the city of Chadron; the county seat of Dawes County.[1]  Its elevation is 4;160 feet (1;298 m);[2]  and its ZIP code is 69354.[3],42.44388889,-103.29861109999999
Mayberry; Nebraska ,Mayberry is an unincorporated community in Pawnee County; Nebraska; in the United States.[1],40.22305556,-96.31194444
Minersville; Nebraska ,Minersville is a former railroad town in Otoe County; Nebraska; United States. It was located approximately 5 miles (8 km) to the SSW of Nebraska City and 2 miles (3.2 km) East of the Nebraska City Municipal Airport. It was founded in the 1850s and dissolved by the early 1900s. During its time; the town was on the Missouri River until the Army Corps of Engineers redirected the river 1.5 miles (2.4 km) to the East.,40.59694444,-95.78916667
Mission Creek; Nebraska ,,39.99324420000001,-96.4931428
New Home; Nebraska ,,40.8482583,-96.6251845
North Summerfield; Nebraska ,,39.9972231,-96.3502917
Omadi; Nebraska ,,42.3097119,-96.47165799999999
Pittsburg; Nebraska ,Pittsburg is a ghost town in Seward County; Nebraska; in the United States.[1],40.756764000000004,-96.65078000000001
Pleasant Valley; Nebraska ,Pleasant Valley is an unincorporated community in Dodge County; Nebraska; in the United States.[1],41.6160542,-96.8565427
Rock Bluff; Nebraska ,Rock Bluff is a ghost town in Cass County located approximately three miles east of Murray in the U.S. state of Nebraska. Once the home of an influential college called the Naomi Institute; Rock Bluff was instrumental in the 1866 vote that gave Nebraska statehood.[1],40.92916667,-95.85277778
Scott's Valley; Nebraska ,,41.313018299999996,-96.35394129999999
Schafferville; Nebraska ,,41.4925374,-99.9018131
Spring Ranche; Nebraska ,,40.401644399999995,-98.2431747
St. Deroin; Nebraska ,St. Deroin is a ghost town in Nemaha County; originally located below the river bluffs on the Missouri River. Formally chartered in 1854; the town had a popular ferry crossing over the Missouri River for more than three decades. The river changed course; ending the ferry. After a railroad spur bypassed the town; it drew off more commerce. The community rebuilt its school on the river bluff when it was threatened by flooding; this area was also used for the cemetery.  The town was completely abandoned by 1920; as flooding had destroyed much of the townsite. The site is at the northern edge of Indian Cave State Park.,40.25527778,-95.5675
Tate; Nebraska ,,41.4925374,-99.9018131
Tipp's Branch; Nebraska ,,41.4925374,-99.9018131
Unit; Nebraska ,,40.676549,-95.84935899999999
Violet; Nebraska ,,40.8201966,-96.70047629999999
Beebe River ,Coordinates: 43°48′57″N 71°39′40″W﻿ / ﻿43.8158°N 71.6611°W﻿ / 43.8158; -71.6611,43.81583333,-71.66111111
Livermore; New Hampshire ,Livermore is an unincorporated civil township and ghost town in Grafton County; New Hampshire; United States. It was briefly inhabited as a logging town in the late 19th and early 20th centuries. The site of the former village is about 16 miles (26 km) west of North Conway; about 1.5 miles (2.4 km) from US Route 302 (the Crawford Notch Highway) via the U.S. Forest Service Sawyer River Road. The logging operation was established by Daniel Saunders Jr. and Charles W. Saunders; members of the Saunders family. The town was named for Samuel Livermore; a former United States senator who was the grandfather of Daniel Saunders' wife. The population was reported as 0 at the 2010 census.,44.07444444,-71.37722222
Monson; New Hampshire ,Monson was a town located in Hillsborough County; New Hampshire. Monson became abandoned in 1770 due to the poor soil on the lands and the limited resources it had at the time. The land that was Monson is now parts of the towns of Hollis; Milford; Amherst; and Brookline.[1][2],42.78611111,-71.61944444
Batsto Village; New Jersey ,Batsto Village (or simply Batsto) is a historic unincorporated community located on CR 542 within Washington Township in Burlington County; New Jersey; United States.[3] It is located in Wharton State Forest in the south central Pine Barrens; and a part of the Pinelands National Reserve. It is listed on the New Jersey and National Register of Historic Places; and is administered by the New Jersey Department of Environmental Protection's Division of Parks & Forestry. The name is derived from the Swedish bastu; bathing place (also the Swedish word for Finnish sauna); the first bathers were probably the Lenni Lenape Native Americans.,39.64166667,-74.64777778
Double Trouble State Park ,Double Trouble State Park is located in Lacey and Berkeley Townships in Ocean County; in the U.S. state of New Jersey. The park was once the Double Trouble company's company town. The park's wilderness provides a unique insight into the Pine Barrens ecosystem.  The park is operated and maintained by the New Jersey Division of Parks and Forestry.,39.88333333,-74.21666667
Feltville Historic District ,"The Feltville Historic District; located in the Watchung Reservation in Berkeley Heights; Union County; New Jersey; United States; is a historic area which contains several buildings dating to the 18th century. It is known locally as ""Deserted Village.""[2]",40.68138889,-74.38694444
Island Beach; New Jersey ,Island Beach was a borough that existed in Ocean County; New Jersey; United States; from 1933 to 1965.,39.84333333,-74.08861111
Millbrook; New Jersey ,Millbrook is an unincorporated community located within Hardwick Township in Warren County; New Jersey; United States.[1][2],41.07333333,-74.96305556
Ong's Hat; New Jersey ,Ong's Hat (also Ong) is an unincorporated community and ghost town in Pemberton Township; Burlington County; New Jersey; United States.[2] It is located on Magnolia Road (County Route 644) west of the Four Mile Circle; where New Jersey Route 72 intersects with New Jersey Route 70.[3] It is the northern terminus of the Batona Trail.,39.91083333,-74.62083333
Port Elizabeth; New Jersey ,Port Elizabeth is an unincorporated community located within Maurice River Township in Cumberland County; New Jersey; United States.[2] The area is served as United States Postal Service ZIP code 08348.,39.31333333,-74.98111111
Raritan Landing; New Jersey ,Raritan Landing is a historical unincorporated community located within Piscataway Township in Middlesex County; New Jersey; United States;[1] which was once an inland port; the farthest upstream point ocean-going ships could reach along the Raritan River; across from New Brunswick. Begun in the early 18th century it remained vital until the mid 19th century; when most of the port was abandoned.[2],40.51055556,-74.45638889
South Cape May; New Jersey ,South Cape May was a borough that existed in Cape May County; New Jersey; United States; from 1894 to 1945. First settled in 1840; it contained a Lucy-type elephant named Light of Asia.,38.93305556,-74.94194444
Walpack Center ,,41.1589843,-74.88016929999999
Brendan T. Byrne State Forest ,The Brendan T. Byrne State Forest (formerly the Lebanon State Forest) is a 37;242 acres (150.71 km2) state forest in the New Jersey Pine Barrens. Its protected acreage is split between Burlington and Ocean Counties.[2],39.88333333,-74.56666667
Conklingville Dam ,The Conklingville Dam; in Hadley; Saratoga County; New York; is an earthen dam which holds back the Great Sacandaga Lake (in the town of Day; New York).,43.31805556,-73.92333333
Delta; New York ,Delta was a village located near Rome in Oneida County; New York. The former village was established in the 1800s; but was submerged to form Delta Reservoir in the early 20th century.,43.28944444,-75.43638889
Doodletown; New York ,Doodletown was an isolated hamlet in the Town of Stony Point; Rockland County; New York; United States. Purchased by the Palisades Interstate Park Commission during the 1960s; it is now part of Bear Mountain State Park and a popular destination for hikers; birdwatchers; botanists; and local historians.  It is located north of Jones Point; west of Iona Island; and southeast of Orange County. The former settlement is now a ghost town.,41.28333333,-73.98333333
Elko; New York ,Coordinates: 42°03′25″N 78°52′52″W﻿ / ﻿42.057°N 78.881°W﻿ / 42.057; -78.881,42.05694444,-78.88111111
Love Canal ,Love Canal is a neighborhood in Niagara Falls; New York. The neighborhood is known infamously as the location of a 70-acre (28 ha; 0.11 sq mi; 0.28 km2) landfill which became the cause of a massive environmental pollution disaster harming the health of hundreds of residents;[1] culminating in an extensive Superfund cleanup operation.,43.08055556,-78.94888889
Carrollton; New York ,Carrollton is a town in Cattaraugus County; New York; United States.  The population was 1;297 at the 2010 census.[3] The name comes from an early settler.,42.00166667,-78.00083333
South Valley; New York ,South Valley is a town in Cattaraugus County; New York; United States. The population was 264 at the 2010 census.[3] The name is from the town's geographical attributes.,42.03277778,-78.99333333
Union Vale; New York ,Union Vale is a town in Dutchess County; New York; United States. The population was 4;877 at the 2010 census.[3],41.69805556,-73.69916667
Parksville; New York ,Parksville is a hamlet in the Town of Liberty; Sullivan County; New York; United States.[1] The zip code is 12768.[2] It is situated at Exit 98 on Route 17 also known as Interstate 86. ,41.8553669,-74.75960490000001
Red House; New York ,Red House (Seneca: joë'hesta) is a town in Cattaraugus County; New York; United States. As of the 2010 census; the town population was 38;[2] making it the least populous town in the state. The town is on the south edge of Cattaraugus County; south of the city of Salamanca.,42.04027778,-78.80527778
Tahawus; New York ,Tahawus (also called Adirondac; or McIntyre; pronounced 'tuh-hawz') was a village in the Town of Newcomb; Essex County; New York; United States. It is now a ghost town situated in the Adirondack Park. Tahawus is located in Essex County within the unpopulated northern area designated to the town of Newcomb.[1] Tahawus was the site of major mining and iron smelting operations in the 19th century.  Although standing as recently as 2005; the last mining facilities have since been demolished and removed (with the exception of some minor garages; blast furnaces and outbuildings).,44.05055556,-74.05111111
Brunswick Town; North Carolina ,,34.03972222,-77.94666667
Buffalo City; North Carolina ,Buffalo City was a logging and moonshine town in East Lake Township; Dare County; North Carolina; United States. It was on the mainland; 19 miles (31 km) west of Manteo near present-day Manns Harbor. The marshy land where Buffalo City once stood; near U.S. 64; is now part of the Alligator River National Wildlife Refuge. The town's history lasted approximately 80 years from the 1870s to 1950s; but at one time Buffalo City's population of 3;000 in the early 20th century made it the largest community in Dare County.[1] A hotel; post office; schoolhouse; general store; 100 miles (160 km) of railroad track and rows of homes once stood on the now-abandoned area. Today; the only remnants of the ghost town include a road sign; rusted rails and building debris now overgrown with weeds.,35.8425,-75.91722222
Cape Lookout Village Historic District ,Cape Lookout Village Historic District is a national historic district located near Core Banks; Carteret County; North Carolina. It encompasses 20 contributing buildings 1 contributing site; and 6 contributing structures in Cape Lookout Village.  The buildings include notable examples of Queen Anne and Bungalow / American Craftsman style architecture. The district includes two government complexes: the Cape Lookout Lighthouse Station and the Cape Lookout Coast Guard Station. In addition; 14 buildings; a long dock; and the circulation network; as well as the landscape in which these lie; compose the district.  The buildings include the Life Saving Station (1888) and Boathouse; the Keeper's Quarters (1907); Luther Guthrie House; Gaskill-Guthrie House; Seifert-Davis House (Coca-Cola House); Baker-Holderness House (Casablanca; c. 1930); the Bryant House; and the Carrie Arendell Davis House.[2],34.6125,-76.535
Cataloochee (Great Smoky Mountains) ,Coordinates: 35°38′23″N 83°04′55″W﻿ / ﻿35.63972°N 83.08194°W﻿ / 35.63972; -83.08194,35.63972222,-83.08194444
Ceramic; North Carolina ,Ceramic is a ghost town in Stokes County; North Carolina; United States approximately ten miles southeast of the county seat of Danbury; near Belews Lake.,36.30666667,-80.08555556
Diamond City; North Carolina ,Diamond City was a settlement on the eastern end of Shackleford Banks; in Carteret County; North Carolina.Due to the San Ciriaco hurricane that struck in August 1899; the approximately 500 residents of the settlement and island decided to move.[1]  The last of the residents had left by 1902; and even relocated houses to nearby places such as Harkers Island; Salter Path and Morehead City.,34.645,-76.54111111
Fort Dobbs (North Carolina) ,,35.82166667,-80.895
Glenville; North Carolina ,Glenville is an unincorporated community and census-designated place (CDP) in Jackson County; North Carolina; United States. It is now a popular lakeside vacation community with many second homes that sometimes are rented around Lake Glenville; which flooded and destroyed the original town. As of the 2010 census; the year-round population was 110.[1],35.17333333,-83.12944444
Judson; Swain County; North Carolina ,Judson was a small town in Swain County; North Carolina. It was submerged when the Fontana Dam was built; creating the Fontana Lake reservoir. Some structures can be visited when the lake is at its yearly low.,35.4328955,-83.46435509999999
Lost Cove; North Carolina ,Lost Cove is a ghost town in Yancey County; North Carolina. The town was first settled by Morgan Bailey shortly before the Civil War. The town is located in the Poplar Gorge above the Nolichucky River on the Tennessee-North Carolina border.[1] Originally; the settlement was supported by logging; railroading; moonshine-making; and farming industries. Several factors contributed to the town's abandonment including rough terrain; isolation; and the end of passenger railroad stops. In 1957; the last family left Lost Cove; leaving it deserted.[2] Fires in 2007 burned most of the structures down. Today; the town is still accessible to those willing to hike. Visitors to the area come to see the cemetery; Swin Miller's rusted Chevy still lying in a ditch; and the three houses that remain.[3],36.07083333,-82.40222222
Mortimer; North Carolina ,Mortimer; North Carolina is a ghost town in Wilson Creek Township; Caldwell County; in the northwestern part of the state.,35.98527778,-81.76111111
Portsmouth; North Carolina ,Portsmouth was a fishing and shipping village located on Portsmouth Island on the Outer Banks in North Carolina.  Portsmouth Island is a tidal island connected; under most conditions; to north end of the North Core Banks; across Ocracoke Inlet from the village of Ocracoke. The town lies in Carteret County;  was established in 1753 by the North Carolina Colonial Assembly; and abandoned in 1971. Its remains are now part of the Cape Lookout National Seashore.,35.06972222,-76.05
Proctor; North Carolina ,Proctor is a former town located in Swain County; North Carolina; U.S.A. It was on Hazel Creek.  It is named after Moses Proctor; first white settler to this area. The town was flooded by Fontana Lake; which was created by the construction of the Fontana Dam; and remains submerged unless lake levels are very low.,35.47333333,-83.72638889
Roanoke Colony ,,35.92833333,-75.70416667
Willets; North Carolina ,Willets is an unincorporated community in Jackson County; North Carolina; United States. Willets is located along US 74; West of Balsam and East of Sylva.   It is home to the Balsam-Willets-Ochre Hill fire department; a church; and many homes.  It was a thriving unincorporated town along the Murphy Branch of the Western North Carolina Railroad; but seriously declined during the Great Depression in the 1930s; consolidations of the schools in the Scott Creek Township in 1951; and the widening/straightening of US 23 in the early 1950s and early 1970s.  Today it is a tiny bedroom community for the larger population centers of Waynesville and Sylva.,35.41166667,-83.11555556
Stanly County; North Carolina ,Stanly County is a county in the U.S. state of North Carolina. As of the 2010 census; the population was 60;585.[1] Its county seat is Albemarle.[2],35.31666667,-80.25
Atwood; Carroll County; Ohio ,,40.5424902,-81.2505066
Atwood; Summit County; Ohio ,,,
Blowville; Clermont County; Ohio ,,39.0975639,-84.0449328
Blue Ball; Ohio ,Blue Ball is a community in Butler and Warren counties; in the U.S. state of Ohio.[1] The community was established in 1820 at the intersection of the Dixie Highway (later U.S. Route 25). Blue Ball was annexed by nearby Middletown in 1994.[2],39.49333333,-84.33638889
Boston Mills Historic District ,The Boston Mills Historic District is a historic district in the Cuyahoga Valley National Park in Northeast Ohio in the United States. With the opening of the Ohio and Erie Canal in 1827; people began to settle in this vicinity. By 1842; there was a water-powered mill; a large warehouse; a boat-yard; two stores and a hotel; and the population was around 300. A number of houses and other buildings dating back to that period remain.,41.26444444,-81.55944444
Claylick; Ohio ,Claylick is a former town in Licking County; in the U.S. state of Ohio. The GNIS classifies it as a populated place.[1],40.05833333,-82.28722222
Elk Lick; Ohio ,Elk Lick is an extinct town in Clermont County; in the U.S. state of Ohio. The GNIS classifies it as a populated place.[1],39.02666667,-84.12972222
Hibernia; Ohio ,"Hibernia was a village located just outside modern-day Reynoldsburg; Ohio. Today; there is a large apartment complex on the land that still bears the name ""Hibernia."" The apartments occupy the southeast corner of East Main Street and Noe-Bixby Road; just inside the I-270 corridor; on the east side of Columbus.",39.95222222,-82.84944444
Ingham; Ohio ,Coordinates: 39°18.695′N 82°18.05′W﻿ / ﻿39.311583°N 82.30083°W﻿ / 39.311583; -82.30083Ingham (also known as Ingham Station or Ingham's Station) is a ghost town in southeastern Brown Township; Vinton County; Ohio; United States.[1],39.00027778,-82.00027778
Knockemstiff; Ohio ,Knockemstiff; also known as Glenn Shade or Shady Glenn; is a small community located in northeastern Huntington Township; Ross County; Ohio; United States; to the southwest of Chillicothe. It sits at an elevation of 692 ft. (211 m). The Geographic Names Information System gives Knockemstiff's coordinates as 39°16′04″ N; 83°07′09″ W; placing the original hamlet at the junction of Black Run Road (County Road 156) and Shady Glen Road. A number of more recent rural residences now occupy the same area.,39.26777778,-83.11916667
Moonville; Ohio ,Moonville is a ghost town in southeastern Brown Township; Vinton County; Ohio; United States. Little remains of this former mining community except a few foundations; a cemetery; and an abandoned railroad tunnel which is the subject of numerous ghost stories.,39.30666667,-82.32138889
New Burlington; Clinton County; Ohio ,New Burlington is a former town located in Chester Township in the northwestern corner of Clinton County; Ohio off state route 380. The GNIS classifies it as a populated place.[1] It was acquired by the United States federal government when Caesar Creek was dammed and a reservoir created in the 1970s.[citation needed],39.56194444,-83.96555556
New Hampton; Ohio ,New Hampton was a village in Jefferson Township; Madison County; Ohio; United States.  It is now part of the village of West Jefferson.,39.93972222,-83.26916667
Newville; Ohio ,Newville is a now defunct town located near what is now Pleasant Hill Lake; in northeastern Worthington Township; Richland County; Ohio; United States.,40.63027778,-82.38555556
Oreton; Ohio ,Oreton is a ghost town in eastern Vinton Township; Vinton County; Ohio; United States; located along State Route 160.  Oreton was a small mining community.  Today; all that remains are the crumbled ruins of the iron furnace; a few concrete foundations; and the brick safe of Dave Ebert's company store.,39.16388889,-82.41277778
